[
  {
    "company": "Advanced Micro Devices, Inc.",
    "website": "https://www.amd.com",
    "ticker": "AMD",
    "sector": "Semiconductors",
    "description": "AMD is a global fabless semiconductor company designing advanced microprocessors and AI accelerators, with core executive architecture in North America and a highly decentralized APAC supply chain.",
    "offices": [
      {
        "id": "amd-santa-clara-hq",
        "name": "Global Headquarters",
        "city": "Santa Clara",
        "state": "CA",
        "country": "USA",
        "address": "2485 Augustine Drive",
        "lat": 37.3826,
        "lng": -121.9626,
        "type": "headquarters",
        "businessFocus": "Executive Administration, Corporate Governance, Ecosystem Leadership",
        "source": "10-K FY2025",
        "confidence": "verified"
      },
      {
        "id": "amd-austin-regional",
        "name": "Lone Star Campus",
        "city": "Austin",
        "state": "TX",
        "country": "USA",
        "lat": 30.2305,
        "lng": -97.8398,
        "type": "engineering",
        "businessFocus": "Microprocessor Design, Software Stack Development, Server Architecture",
        "source": "Corporate Directory",
        "confidence": "verified"
      },
      {
        "id": "amd-markham-engineering",
        "name": "Markham Hub",
        "city": "Markham",
        "state": "ON",
        "country": "Canada",
        "lat": 43.8427,
        "lng": -79.3871,
        "type": "engineering",
        "businessFocus": "GPU Engineering, Multimedia R&D, Discrete Graphics",
        "source": "Corporate Directory",
        "confidence": "verified"
      },
      {
        "id": "amd-penang-engineering",
        "name": "GBS by the Sea Facility",
        "city": "Bayan Lepas",
        "state": "Penang",
        "country": "Malaysia",
        "lat": 5.2965,
        "lng": 100.2847,
        "type": "engineering",
        "businessFocus": "Advanced Packaging, 3DIC Architecture, Engineering Lab",
        "size": "209000 sq ft, 1200+ employees",
        "source": "Press Release",
        "confidence": "verified"
      },
      {
        "id": "amd-bengaluru-engineering",
        "name": "Technostar R&D Campus",
        "city": "Bengaluru",
        "state": "Karnataka",
        "country": "India",
        "lat": 12.9716,
        "lng": 77.5946,
        "type": "engineering",
        "businessFocus": "Largest Global Design Center, Sovereign AI Support",
        "source": "Press Release",
        "confidence": "verified"
      },
      {
        "id": "amd-dublin-holding",
        "name": "Xilinx Finance Ireland Ltd.",
        "city": "Dublin",
        "country": "Ireland",
        "lat": 53.3498,
        "lng": -6.2603,
        "type": "regional",
        "businessFocus": "Financial, IP Holding Architecture",
        "source": "10-K FY2025, Exhibit 21",
        "confidence": "verified"
      }
    ]
  },
  {
    "company": "Amazon.com, Inc.",
    "website": "https://www.amazon.com",
    "ticker": "AMZN",
    "sector": "Consumer Discretionary / Information Technology",
    "description": "Amazon is a multinational technology conglomerate operating a globally distributed corporate footprint, featuring a highly bifurcated architecture that separates its legacy retail fulfillment logistics, its hyperscale AWS cloud computing infrastructure, and its emerging low Earth orbit (LEO) satellite manufacturing operations.",
    "offices": [
      {
        "id": "amzn-seattle-hq",
        "name": "Global Headquarters (Day 1)",
        "city": "Seattle",
        "state": "WA",
        "country": "USA",
        "address": "410 Terry Avenue North",
        "lat": 47.6227,
        "lng": -122.3362,
        "type": "headquarters",
        "businessFocus": "Core global leadership, enterprise operations, innovation laboratories",
        "established": 2012,
        "source": "10-K FY2025",
        "confidence": "verified"
      },
      {
        "id": "amzn-arlington-hq2",
        "name": "HQ2 (National Landing)",
        "city": "Arlington",
        "state": "VA",
        "country": "USA",
        "address": "1770 Crystal Drive",
        "lat": 38.8583,
        "lng": -77.0494,
        "type": "headquarters",
        "businessFocus": "Secondary corporate HQ, AWS government contracting hub",
        "source": "Where Is Amazon Headquarters?",
        "confidence": "verified"
      },
      {
        "id": "amzn-bellevue-hub",
        "name": "Bellevue Corporate Hub",
        "city": "Bellevue",
        "state": "WA",
        "country": "USA",
        "lat": 47.6101,
        "lng": -122.2015,
        "type": "regional",
        "businessFocus": "Major corporate campus",
        "size": "15,000 employees",
        "source": "List of Amazon locations",
        "confidence": "verified"
      },
      {
        "id": "amzn-luxembourg-emea",
        "name": "EMEA Headquarters",
        "city": "Luxembourg City",
        "country": "Luxembourg",
        "lat": 49.6116,
        "lng": 6.1319,
        "type": "regional",
        "businessFocus": "European, Middle Eastern, and African operations and central European logistics coordination",
        "source": "List of Amazon locations",
        "confidence": "verified"
      },
      {
        "id": "amzn-london-uk",
        "name": "UK Headquarters",
        "city": "London",
        "country": "UK",
        "address": "Principal Place, Shoreditch",
        "lat": 51.523,
        "lng": -0.0789,
        "type": "regional",
        "businessFocus": "United Kingdom operations management",
        "source": "List of Amazon locations",
        "confidence": "verified"
      },
      {
        "id": "amzn-hyderabad-apac",
        "name": "Hyderabad Campus",
        "city": "Hyderabad",
        "state": "Telangana",
        "country": "India",
        "lat": 17.4156,
        "lng": 78.3424,
        "type": "engineering",
        "businessFocus": "Major APAC engineering, operational, and customer support nerve center",
        "size": "15,000 employees, 9.5 acres",
        "source": "List of Amazon locations",
        "confidence": "verified"
      },
      {
        "id": "amzn-kirkland-kuiper",
        "name": "Project Kuiper Manufacturing",
        "city": "Kirkland",
        "state": "WA",
        "country": "USA",
        "lat": 47.6815,
        "lng": -122.2087,
        "type": "manufacturing",
        "businessFocus": "LEO Satellite Manufacturing",
        "size": "172,000 sq ft",
        "source": "Project Kuiper launches in Kirkland",
        "confidence": "verified"
      },
      {
        "id": "amzn-everett-kuiper",
        "name": "Project Kuiper Logistics",
        "city": "Everett",
        "state": "WA",
        "country": "USA",
        "lat": 47.9789,
        "lng": -122.202,
        "type": "satellite",
        "businessFocus": "Supply Chain / Warehousing for aerospace materials",
        "size": "184,000 sq ft",
        "source": "VIPs cut the ribbon at the grand opening of Amazon's Project Kuiper",
        "confidence": "verified"
      },
      {
        "id": "amzn-titusville-kuiper",
        "name": "Kennedy Space Center Facility",
        "city": "Titusville",
        "state": "FL",
        "country": "USA",
        "lat": 28.5833,
        "lng": -80.6489,
        "type": "satellite",
        "businessFocus": "Satellite processing and payload integration",
        "size": "100-foot tall high bay",
        "source": "Amazon's Project Kuiper will open a new satellite-processing facility",
        "confidence": "verified"
      }
    ]
  },
  {
    "company": "ASML Holding N.V.",
    "website": "https://www.asml.com",
    "ticker": "ASML",
    "sector": "Semiconductor Equipment",
    "description": "ASML operates as a monopoly in extreme ultraviolet (EUV) lithography, with a highly centralized R&D and manufacturing nucleus in Europe and a revenue base heavily concentrated in Asian semiconductor fabrication hubs.",
    "offices": [
      {
        "id": "asml-veldhoven-hq",
        "name": "ASML Global Headquarters",
        "city": "Veldhoven",
        "country": "Netherlands",
        "lat": 51.4173,
        "lng": 5.4053,
        "type": "headquarters",
        "businessFocus": "Core R&D, Primary Manufacturing, Global Administration",
        "size": "53% of global workforce",
        "source": "20-F FY2025",
        "confidence": "verified"
      },
      {
        "id": "asml-san-diego-manufacturing",
        "name": "ASML San Diego (Cymer)",
        "city": "San Diego",
        "state": "CA",
        "country": "USA",
        "lat": 32.7157,
        "lng": -117.1611,
        "type": "manufacturing",
        "businessFocus": "DUV light sources, EUV droplet generators",
        "source": "20-F FY2025",
        "confidence": "verified"
      },
      {
        "id": "asml-wilton-manufacturing",
        "name": "ASML Wilton",
        "city": "Wilton",
        "state": "CT",
        "country": "USA",
        "lat": 41.2001,
        "lng": -73.4379,
        "type": "manufacturing",
        "businessFocus": "Optical fabrication, reticle handlers, reticle stages",
        "size": ">1000 employees",
        "source": "20-F FY2025",
        "confidence": "verified"
      },
      {
        "id": "asml-chandler-regional",
        "name": "ASML Chandler",
        "city": "Chandler",
        "state": "AZ",
        "country": "USA",
        "lat": 33.3062,
        "lng": -111.8413,
        "type": "regional",
        "businessFocus": "US Global Support Center, Sales, Technical Training Academy",
        "source": "20-F FY2025",
        "confidence": "verified"
      },
      {
        "id": "asml-berlin-manufacturing",
        "name": "ASML Berlin GmbH",
        "city": "Berlin",
        "country": "Germany",
        "lat": 52.52,
        "lng": 13.405,
        "type": "manufacturing",
        "businessFocus": "Wafer clamps, reticle chucks, mirror blocks",
        "source": "20-F FY2025",
        "confidence": "verified"
      },
      {
        "id": "asml-hsinchu-regional",
        "name": "ASML Hsinchu",
        "city": "Hsinchu",
        "country": "Taiwan",
        "lat": 24.8138,
        "lng": 120.9675,
        "type": "regional",
        "businessFocus": "Asian Regional HQ, Customer Support, Software Development",
        "source": "20-F FY2025",
        "confidence": "verified"
      },
      {
        "id": "asml-hwasung-regional",
        "name": "ASML Hwasung",
        "city": "Hwasung",
        "country": "South Korea",
        "lat": 37.2068,
        "lng": 126.818,
        "type": "regional",
        "businessFocus": "Korean Regional HQ, Customer Support",
        "established": "2025",
        "source": "20-F FY2025",
        "confidence": "verified"
      },
      {
        "id": "asml-beijing-engineering",
        "name": "ASML Beijing",
        "city": "Beijing",
        "country": "China",
        "lat": 39.9042,
        "lng": 116.4074,
        "type": "engineering",
        "businessFocus": "R&D, Manufacturing (e-beam), Customer Support",
        "source": "20-F FY2025",
        "confidence": "verified"
      }
    ]
  },
  {
    "company": "Broadcom Inc.",
    "website": "https://www.broadcom.com",
    "ticker": "AVGO",
    "sector": "Semiconductor and Infrastructure Software",
    "description": "A global technology leader designing, developing, and supplying semiconductor and infrastructure software solutions, operating a bifurcated geographic model that pairs Western R&D and administration with highly concentrated Indo-Pacific manufacturing and distribution networks.",
    "offices": [
      {
        "id": "avgo-palo-alto-hq",
        "name": "Broadcom Corporate Headquarters",
        "city": "Palo Alto",
        "state": "CA",
        "country": "United States",
        "address": "3421 Hillview Avenue",
        "lat": 37.3986,
        "lng": -122.1466,
        "type": "headquarters",
        "businessFocus": "Principal executive offices, software engineering, enterprise administration",
        "size": "561,000 sq ft",
        "established": "2023",
        "source": "10-K FY2025, Item 2",
        "confidence": "verified"
      },
      {
        "id": "avgo-fort-collins-eng",
        "name": "Fort Collins Engineering Node",
        "city": "Fort Collins",
        "state": "CO",
        "country": "United States",
        "address": "4380 Ziegler Road",
        "lat": 40.5401,
        "lng": -105.0268,
        "type": "engineering",
        "businessFocus": "Engineering, design, internal manufacturing oversight",
        "source": "10-K FY2025, Item 2",
        "confidence": "verified"
      },
      {
        "id": "avgo-batu-kawan-dist",
        "name": "Global Distribution Hub",
        "city": "Batu Kawan",
        "state": "Penang",
        "country": "Malaysia",
        "lat": 5.2647,
        "lng": 100.4429,
        "type": "logistics",
        "businessFocus": "Global supply chain management, final product engineering, physical distribution",
        "size": "Primary global node",
        "established": "2018",
        "source": "10-K FY2025, Item 2",
        "confidence": "verified"
      },
      {
        "id": "avgo-tel-aviv-rd",
        "name": "Israel R&D Center",
        "city": "Tel Aviv",
        "country": "Israel",
        "address": "17 George Weiss Street",
        "lat": 32.113,
        "lng": 34.8016,
        "type": "engineering",
        "businessFocus": "Advanced networking and security solutions development",
        "source": "10-K FY2025, Item 2",
        "confidence": "verified"
      },
      {
        "id": "avgo-singapore-sub",
        "name": "Singapore Operations Hub",
        "city": "Singapore",
        "country": "Singapore",
        "lat": 1.3521,
        "lng": 103.8198,
        "type": "regional",
        "businessFocus": "Tax optimization, supply chain billing, corporate subsidiary (Avago Technologies International Sales Pte. Limited)",
        "source": "Exhibit 21 FY2025",
        "confidence": "verified"
      },
      {
        "id": "avgo-bangalore-rd",
        "name": "Bangalore Engineering Hub",
        "city": "Bangalore",
        "state": "Karnataka",
        "country": "India",
        "address": "International Tech Park",
        "lat": 12.9866,
        "lng": 77.7374,
        "type": "engineering",
        "businessFocus": "Software engineering, back-end design support",
        "source": "10-K FY2025, Item 2",
        "confidence": "verified"
      }
    ]
  },
  {
    "company": "Alphabet Inc.",
    "website": "https://abc.xyz",
    "ticker": "GOOGL",
    "sector": "Technology / Communication Services",
    "description": "A global technology conglomerate with a massive footprint spanning sovereign-level infrastructure, characterized by highly concentrated corporate hubs and geographically dispersed, energy-intensive data centers powering global search, cloud, and generative AI.",
    "offices": [
      {
        "id": "googl-mountain-view-hq",
        "name": "Googleplex & Bay View",
        "city": "Mountain View",
        "state": "CA",
        "country": "USA",
        "lat": 37.4221,
        "lng": -122.0841,
        "type": "headquarters",
        "businessFocus": "Global Headquarters, Executive Management, Core Product R&D",
        "source": "10-K FY2025, Item 2",
        "confidence": "verified"
      },
      {
        "id": "googl-new-york-regional",
        "name": "St. John's Terminal & Chelsea",
        "city": "New York City",
        "state": "NY",
        "country": "USA",
        "lat": 40.742,
        "lng": -74.0048,
        "type": "regional",
        "businessFocus": "Major Regional Corporate Hub, Financial Market Operations",
        "source": "10-K FY2025, Item 2",
        "confidence": "verified"
      },
      {
        "id": "googl-london-regional",
        "name": "Pancras Square",
        "city": "London",
        "country": "UK",
        "lat": 51.5333,
        "lng": -0.1262,
        "type": "regional",
        "businessFocus": "EMEA Regional Headquarters, Sales, Strategic Partnerships",
        "source": "10-K FY2025, Item 2",
        "confidence": "verified"
      },
      {
        "id": "googl-dublin-regional",
        "name": "Gordon House & Docks",
        "city": "Dublin",
        "country": "Ireland",
        "lat": 53.3394,
        "lng": -6.2366,
        "type": "regional",
        "businessFocus": "EU Operations, Tax Hub, Corporate Governance",
        "source": "10-K FY2025, Item 2",
        "confidence": "verified"
      },
      {
        "id": "googl-singapore-hq",
        "name": "Google Singapore",
        "city": "Singapore",
        "country": "Singapore",
        "lat": 1.276,
        "lng": 103.7997,
        "type": "headquarters",
        "businessFocus": "APAC Regional Headquarters",
        "source": "10-K FY2025, Item 2",
        "confidence": "verified"
      },
      {
        "id": "googl-midlothian-dc",
        "name": "Ellis County Campus",
        "city": "Midlothian",
        "state": "TX",
        "country": "USA",
        "lat": 32.4824,
        "lng": -96.9958,
        "type": "data_center",
        "businessFocus": "Cloud Infrastructure, Data Center",
        "source": "10-K FY2025, Item 2",
        "confidence": "verified"
      },
      {
        "id": "googl-visakhapatnam-dc",
        "name": "Visakhapatnam AI Hub",
        "city": "Visakhapatnam",
        "state": "Andhra Pradesh",
        "country": "India",
        "lat": 17.6868,
        "lng": 83.2185,
        "type": "data_center",
        "businessFocus": "AI and Cloud Infrastructure Hub",
        "size": "$15B Investment",
        "source": "Press Release / Form 10-K FY2025",
        "confidence": "verified"
      }
    ]
  },
  {
    "company": "Microsoft Corporation",
    "website": "https://www.microsoft.com",
    "ticker": "MSFT",
    "sector": "Technology / Software & Infrastructure",
    "description": "Microsoft is a global technology and sovereign digital infrastructure provider, primarily driven by its Azure hyperscale cloud network, enterprise AI software, and geographically dispersed research and development hubs.",
    "offices": [
      {
        "id": "msft-redmond-hq",
        "name": "Microsoft Global Headquarters",
        "city": "Redmond",
        "state": "Washington",
        "country": "USA",
        "lat": 47.6396,
        "lng": -122.1284,
        "type": "headquarters",
        "businessFocus": "Executive Leadership, Core Engineering, Cloud Administration",
        "size": "500 acres, 125+ buildings",
        "source": "10-K FY2025",
        "confidence": "verified"
      },
      {
        "id": "msft-silicon-valley-engineering",
        "name": "Silicon Valley Campus",
        "city": "Mountain View",
        "state": "California",
        "country": "USA",
        "lat": 37.409,
        "lng": -122.0628,
        "type": "engineering",
        "businessFocus": "Major R&D Center",
        "source": "10-K FY2025",
        "confidence": "verified"
      },
      {
        "id": "msft-dublin-regional",
        "name": "Microsoft Ireland Operations",
        "city": "Dublin",
        "country": "Ireland",
        "lat": 53.268,
        "lng": -6.195,
        "type": "regional",
        "businessFocus": "Financial Flows, International Tax Optimization, IP Localization",
        "source": "10-K FY2025, Exhibit 21",
        "confidence": "verified"
      },
      {
        "id": "msft-hyderabad-engineering",
        "name": "India Development Centre (IDC)",
        "city": "Hyderabad",
        "state": "Telangana",
        "country": "India",
        "lat": 17.43,
        "lng": 78.342,
        "type": "engineering",
        "businessFocus": "Major R&D Center, Sovereign Cloud Infrastructure",
        "source": "Microsoft News India Press Release",
        "confidence": "verified"
      },
      {
        "id": "msft-mt-pleasant-data-center",
        "name": "Fairwater AI Datacenter",
        "city": "Mount Pleasant",
        "state": "Wisconsin",
        "country": "USA",
        "lat": 42.7161,
        "lng": -87.9542,
        "type": "data_center",
        "businessFocus": "AI Hyperscale Datacenter, GPU Clusters, Liquid Cooling",
        "size": "315 acres, 1.2M sq ft",
        "source": "Tom's Hardware / Tech Press",
        "confidence": "verified"
      },
      {
        "id": "msft-atlanta-data-center",
        "name": "East US 3 Region",
        "city": "Atlanta",
        "state": "Georgia",
        "country": "USA",
        "lat": 33.749,
        "lng": -84.388,
        "type": "data_center",
        "businessFocus": "Datacenter / Cloud Region",
        "source": "Microsoft Corporate Blog",
        "confidence": "verified"
      }
    ]
  },
  {
    "company": "Micron Technology, Inc.",
    "website": "https://www.micron.com",
    "ticker": "MU",
    "sector": "Semiconductors",
    "description": "Micron is a global leader in memory and storage solutions, operating a highly bifurcated geographic model with R&D and advanced front-end fabrication in the US, high-volume manufacturing in Taiwan and Japan, and back-end assembly across South and Southeast Asia.",
    "offices": [
      {
        "id": "mu-boise-hq",
        "name": "Global Headquarters & Fab 4",
        "city": "Boise",
        "state": "Idaho",
        "country": "USA",
        "lat": 43.615,
        "lng": -116.2023,
        "type": "headquarters",
        "businessFocus": "Corporate HQ, R&D, Front-End Manufacturing, 1-gamma (1γ) DRAM development",
        "source": "Q2 2026 Earnings Call Transcript",
        "confidence": "verified"
      },
      {
        "id": "mu-manassas-fab6",
        "name": "Fab 6",
        "city": "Manassas",
        "state": "Virginia",
        "country": "USA",
        "lat": 38.7509,
        "lng": -77.4753,
        "type": "manufacturing",
        "businessFocus": "Front-End Manufacturing, automotive, embedded, and industrial sector legacy nodes",
        "source": "Corporate Profile",
        "confidence": "verified"
      },
      {
        "id": "mu-clay-megafab",
        "name": "Clay Megafab",
        "city": "Clay",
        "state": "New York",
        "country": "USA",
        "lat": 43.1601,
        "lng": -76.2022,
        "type": "manufacturing",
        "businessFocus": "Front-End Manufacturing, AI advanced memory (Under Construction)",
        "established": "2026",
        "source": "Press Release (Jan 16, 2026)",
        "confidence": "verified"
      },
      {
        "id": "mu-taichung-fab",
        "name": "Micron Taiwan (Taichung)",
        "city": "Taichung",
        "country": "Taiwan",
        "lat": 24.1477,
        "lng": 120.6736,
        "type": "manufacturing",
        "businessFocus": "Front-End Manufacturing, Advanced Packaging for HBM",
        "source": "Corporate Profile",
        "confidence": "verified"
      },
      {
        "id": "mu-taoyuan-fab",
        "name": "Micron Taiwan (Taoyuan)",
        "city": "Taoyuan",
        "country": "Taiwan",
        "lat": 24.9936,
        "lng": 121.301,
        "type": "manufacturing",
        "businessFocus": "Front-End Manufacturing",
        "source": "Corporate Profile",
        "confidence": "verified"
      },
      {
        "id": "mu-tainan-fab",
        "name": "Micron Taiwan (Tainan)",
        "city": "Tainan",
        "country": "Taiwan",
        "lat": 23.1417,
        "lng": 120.2513,
        "type": "manufacturing",
        "businessFocus": "Front-End Manufacturing",
        "source": "Corporate Profile",
        "confidence": "verified"
      },
      {
        "id": "mu-tongluo-fab",
        "name": "Tongluo Facility",
        "city": "Miaoli County",
        "country": "Taiwan",
        "lat": 24.4851,
        "lng": 120.7852,
        "type": "manufacturing",
        "businessFocus": "Front-End Manufacturing",
        "established": "2026",
        "source": "Q2 2026 Earnings Call Transcript",
        "confidence": "verified"
      },
      {
        "id": "mu-singapore-fab",
        "name": "Fab 7 & Fab 10",
        "city": "Singapore",
        "country": "Singapore",
        "lat": 1.3521,
        "lng": 103.8198,
        "type": "manufacturing",
        "businessFocus": "NAND Manufacturing, Advanced Packaging",
        "source": "Corporate Profile",
        "confidence": "verified"
      },
      {
        "id": "mu-hiroshima-fab",
        "name": "Hiroshima Fab",
        "city": "Hiroshima",
        "country": "Japan",
        "lat": 34.3853,
        "lng": 132.4553,
        "type": "manufacturing",
        "businessFocus": "DRAM Manufacturing (EUV)",
        "source": "Corporate Profile",
        "confidence": "verified"
      },
      {
        "id": "mu-penang-fab",
        "name": "Penang Facility",
        "city": "Penang",
        "country": "Malaysia",
        "lat": 5.4141,
        "lng": 100.3288,
        "type": "manufacturing",
        "businessFocus": "Back-End Assembly & Test",
        "source": "Corporate Profile",
        "confidence": "verified"
      },
      {
        "id": "mu-muar-fab",
        "name": "Muar Facility",
        "city": "Muar",
        "country": "Malaysia",
        "lat": 2.0442,
        "lng": 102.5689,
        "type": "manufacturing",
        "businessFocus": "Back-End Assembly & Test",
        "source": "Corporate Profile",
        "confidence": "verified"
      },
      {
        "id": "mu-xian-fab",
        "name": "Xi'an Facility",
        "city": "Xi'an",
        "country": "China",
        "lat": 34.3416,
        "lng": 108.9398,
        "type": "manufacturing",
        "businessFocus": "Back-End Assembly & Test",
        "source": "Corporate Profile",
        "confidence": "verified"
      },
      {
        "id": "mu-gujarat-fab",
        "name": "Gujarat Facility",
        "city": "Gujarat",
        "country": "India",
        "lat": 23.0225,
        "lng": 72.5714,
        "type": "manufacturing",
        "businessFocus": "Back-End Assembly & Test",
        "established": "2026",
        "source": "Corporate Profile",
        "confidence": "verified"
      },
      {
        "id": "mu-austin-rd",
        "name": "Austin R&D Center",
        "city": "Austin",
        "state": "Texas",
        "country": "USA",
        "lat": 30.2672,
        "lng": -97.7431,
        "type": "engineering",
        "businessFocus": "R&D, Design Center",
        "source": "Micron Locations",
        "confidence": "verified"
      },
      {
        "id": "mu-munich-sales",
        "name": "Munich Office",
        "city": "Munich",
        "country": "Germany",
        "lat": 48.1351,
        "lng": 11.582,
        "type": "sales",
        "businessFocus": "Regional Sales",
        "source": "Unverified function",
        "confidence": "unverified"
      },
      {
        "id": "mu-italy-sub",
        "name": "Micron Technology Italia S.r.l.",
        "city": "Rome",
        "country": "Italy",
        "lat": 41.9028,
        "lng": 12.4964,
        "type": "regional",
        "businessFocus": "Regional Subsidiary",
        "source": "SEC Filings",
        "confidence": "unverified"
      }
    ]
  },
  {
    "company": "NVIDIA Corporation",
    "website": "https://www.nvidia.com",
    "ticker": "NVDA",
    "sector": "Technology / Semiconductors",
    "description": "A sovereign-level infrastructure architect orchestrating the physical and digital substrates of the global AI economy through advanced GPUs, high-performance networking, and full-stack AI computing platforms.",
    "offices": [
      {
        "id": "nvda-santa-clara-hq",
        "name": "NVIDIA Global Headquarters",
        "city": "Santa Clara",
        "state": "California",
        "country": "USA",
        "address": null,
        "lat": 37.3541,
        "lng": -121.9552,
        "type": "headquarters",
        "businessFocus": "Global HQ, Corporate R&D, Core Data Center, Executive Leadership",
        "size": "3,000,000 sq ft",
        "established": "1993",
        "source": "10-K FY2026, Item 2",
        "confidence": "verified"
      },
      {
        "id": "nvda-austin-regional",
        "name": "NVIDIA Austin",
        "city": "Austin",
        "state": "Texas",
        "country": "USA",
        "lat": 30.2672,
        "lng": -97.7431,
        "type": "regional",
        "businessFocus": "CPU/System Architecture R&D",
        "source": "NVIDIA Americas Locations",
        "confidence": "verified"
      },
      {
        "id": "nvda-yokneam-regional",
        "name": "NVIDIA Yokneam",
        "city": "Yokneam",
        "country": "Israel",
        "lat": 32.6598,
        "lng": 35.1054,
        "type": "regional",
        "businessFocus": "High-Performance Networking R&D, InfiniBand",
        "source": "Corporate Disclosures, Israel Operations",
        "confidence": "verified"
      },
      {
        "id": "nvda-beersheba-rd",
        "name": "NVIDIA Be'er Sheva (Gav-Yam)",
        "city": "Be'er Sheva",
        "country": "Israel",
        "lat": 31.2518,
        "lng": 34.7913,
        "type": "engineering",
        "businessFocus": "Advanced Networking R&D",
        "size": "3,000 sq meters",
        "established": "2026",
        "source": "Corporate Press Releases",
        "confidence": "verified"
      },
      {
        "id": "nvda-kiryat-tivon-campus",
        "name": "Kiryat Tivon Mega-Campus",
        "city": "Kiryat Tivon",
        "country": "Israel",
        "lat": 32.7151,
        "lng": 35.1325,
        "type": "regional",
        "businessFocus": "Massive R&D Campus",
        "size": "160,000 sq meters / 10,000 headcount",
        "established": "2031",
        "source": "Corporate Press Releases",
        "confidence": "verified"
      },
      {
        "id": "nvda-bengaluru-engineering",
        "name": "NVIDIA Bengaluru",
        "city": "Bengaluru",
        "state": "Karnataka",
        "country": "India",
        "lat": 12.9716,
        "lng": 77.5946,
        "type": "engineering",
        "businessFocus": "Software & CUDA Engineering R&D",
        "source": "NVIDIA Locations & Regional Offices",
        "confidence": "verified"
      },
      {
        "id": "nvda-hsinchu-regional",
        "name": "NVIDIA Hsinchu",
        "city": "Hsinchu City",
        "country": "Taiwan",
        "lat": 24.8138,
        "lng": 120.9675,
        "type": "regional",
        "businessFocus": "R&D Hub, Foundational Supply Chain Coordination",
        "source": "NVIDIA Asia & Japan Locations",
        "confidence": "verified"
      },
      {
        "id": "nvda-singapore-regional",
        "name": "NVIDIA Singapore Pte Ltd",
        "city": "Singapore",
        "country": "Singapore",
        "lat": 1.3521,
        "lng": 103.8198,
        "type": "regional",
        "businessFocus": "Invoicing, Billing Hub, Logistics Coordination",
        "source": "10-K FY2026, Exhibit 21",
        "confidence": "verified"
      },
      {
        "id": "nvda-london-engineering",
        "name": "NVIDIA UK R&D Hub",
        "city": "London",
        "country": "UK",
        "lat": 51.5074,
        "lng": -0.1278,
        "type": "engineering",
        "businessFocus": "R&D Hub, Sovereign AI & Quantum Supercomputing",
        "source": "NVIDIA Locations & Regional Offices",
        "confidence": "verified"
      }
    ]
  },
  {
    "company": "Taiwan Semiconductor Manufacturing Company Limited",
    "website": "https://www.tsmc.com",
    "ticker": "TSM",
    "sector": "Semiconductors",
    "description": "TSMC is the world's preeminent dedicated semiconductor contract manufacturer, currently transitioning from a highly concentrated Taiwanese footprint to a decentralized global manufacturing architecture.",
    "offices": [
      {
        "id": "tsm-hsinchu-hq",
        "name": "Global Headquarters & GIGAFAB",
        "city": "Hsinchu",
        "country": "Taiwan",
        "lat": 24.8138,
        "lng": 120.9675,
        "type": "headquarters",
        "businessFocus": "Corporate HQ, Executive Leadership, R&D Vanguard, Advanced Manufacturing (2nm/A14)",
        "source": "Form 6-K Subsidiary Data / Q4 2025 Earnings Transcript",
        "confidence": "verified"
      },
      {
        "id": "tsm-taichung-manufacturing",
        "name": "Taichung GIGAFAB Cluster",
        "city": "Taichung",
        "country": "Taiwan",
        "lat": 24.1477,
        "lng": 120.6736,
        "type": "manufacturing",
        "businessFocus": "Advanced Manufacturing",
        "source": "Q4 2025 Earnings Transcript",
        "confidence": "verified"
      },
      {
        "id": "tsm-tainan-manufacturing",
        "name": "Tainan GIGAFAB Cluster",
        "city": "Tainan",
        "country": "Taiwan",
        "lat": 23.1113,
        "lng": 120.2858,
        "type": "manufacturing",
        "businessFocus": "Advanced Manufacturing",
        "source": "Q4 2025 Earnings Transcript",
        "confidence": "verified"
      },
      {
        "id": "tsm-phoenix-manufacturing",
        "name": "TSMC Arizona (Fabs 1, 2, 3)",
        "city": "Phoenix",
        "state": "Arizona",
        "country": "USA",
        "lat": 33.4484,
        "lng": -112.074,
        "type": "manufacturing",
        "businessFocus": "Advanced Manufacturing (4nm, 3nm, 2nm/A16), Onshore Integration",
        "investment": "$165B",
        "source": "Q4 2025 Earnings Transcript / TSMC Press Release",
        "confidence": "verified"
      },
      {
        "id": "tsm-camas-manufacturing",
        "name": "TSMC Washington",
        "city": "Camas",
        "state": "Washington",
        "country": "USA",
        "lat": 45.5826,
        "lng": -122.4015,
        "type": "manufacturing",
        "businessFocus": "Legacy 8-inch Wafer Manufacturing",
        "source": "TSMC 2024 Annual Report",
        "confidence": "verified"
      },
      {
        "id": "tsm-sanjose-regional",
        "name": "TSMC North America",
        "city": "San Jose",
        "state": "California",
        "country": "USA",
        "lat": 37.3382,
        "lng": -121.8863,
        "type": "regional",
        "businessFocus": "Regional Sales, Customer Support, Financial Operations",
        "source": "TSMC Affiliates and Forward Contracts",
        "confidence": "unverified"
      },
      {
        "id": "tsm-kumamoto-manufacturing",
        "name": "Japan Advanced Semiconductor Manufacturing (JASM)",
        "city": "Kumamoto",
        "country": "Japan",
        "lat": 32.8031,
        "lng": 130.7079,
        "type": "manufacturing",
        "businessFocus": "Manufacturing (22/28nm, 12/16nm, transitioning to 3nm logic chips)",
        "source": "Q4 2025 Earnings Transcript",
        "confidence": "verified"
      },
      {
        "id": "tsm-dresden-manufacturing",
        "name": "European Semiconductor Manufacturing Company (ESMC)",
        "city": "Dresden",
        "country": "Germany",
        "lat": 51.0504,
        "lng": 13.7373,
        "type": "manufacturing",
        "businessFocus": "Manufacturing (28/22nm, 16/12nm FinFET) for Automotive/Industrial",
        "established": "2024",
        "source": "TrendForce / GTAI Press Release",
        "confidence": "verified"
      },
      {
        "id": "tsm-munich-engineering",
        "name": "Munich Design Center",
        "city": "Munich",
        "country": "Germany",
        "lat": 48.1351,
        "lng": 11.582,
        "type": "engineering",
        "businessFocus": "Chip Design / R&D for Automotive and Industrial IoT",
        "established": "2025",
        "source": "TrendForce / GTAI Press Release",
        "confidence": "verified"
      },
      {
        "id": "tsm-nanjing-manufacturing",
        "name": "TSMC Nanjing",
        "city": "Nanjing",
        "country": "China",
        "lat": 32.0603,
        "lng": 118.7969,
        "type": "manufacturing",
        "businessFocus": "Legacy Manufacturing (16/28nm)",
        "source": "TSMC 2024 Annual Report",
        "confidence": "verified"
      },
      {
        "id": "tsm-shanghai-manufacturing",
        "name": "TSMC China Co. Ltd.",
        "city": "Shanghai",
        "country": "China",
        "lat": 31.2304,
        "lng": 121.4737,
        "type": "manufacturing",
        "businessFocus": "Legacy 8-inch Wafer Manufacturing",
        "source": "TSMC 2024 Annual Report",
        "confidence": "unverified"
      }
    ]
  }
]