[
  {
    "company": "Advanced Micro Devices, Inc.",
    "website": "https://www.amd.com",
    "ticker": "AMD",
    "sector": "Semiconductors",
    "description": "AMD is a global fabless semiconductor company designing advanced microprocessors and AI accelerators, with core executive architecture in North America and a highly decentralized APAC supply chain.",
    "offices": [
      {
        "id": "amd-santa-clara-hq",
        "name": "Global Headquarters",
        "city": "Santa Clara",
        "state": "CA",
        "country": "USA",
        "address": "2485 Augustine Drive",
        "lat": 37.3826,
        "lng": -121.9626,
        "type": "headquarters",
        "businessFocus": "Executive Administration, Corporate Governance, Ecosystem Leadership",
        "source": "10-K FY2025",
        "confidence": "verified"
      },
      {
        "id": "amd-austin-regional",
        "name": "Lone Star Campus",
        "city": "Austin",
        "state": "TX",
        "country": "USA",
        "lat": 30.2305,
        "lng": -97.8398,
        "type": "engineering",
        "businessFocus": "Microprocessor Design, Software Stack Development, Server Architecture",
        "source": "Corporate Directory",
        "confidence": "verified"
      },
      {
        "id": "amd-markham-engineering",
        "name": "Markham Hub",
        "city": "Markham",
        "state": "ON",
        "country": "Canada",
        "lat": 43.8427,
        "lng": -79.3871,
        "type": "engineering",
        "businessFocus": "GPU Engineering, Multimedia R&D, Discrete Graphics",
        "source": "Corporate Directory",
        "confidence": "verified"
      },
      {
        "id": "amd-penang-engineering",
        "name": "GBS by the Sea Facility",
        "city": "Bayan Lepas",
        "state": "Penang",
        "country": "Malaysia",
        "lat": 5.2965,
        "lng": 100.2847,
        "type": "engineering",
        "businessFocus": "Advanced Packaging, 3DIC Architecture, Engineering Lab",
        "size": "209000 sq ft, 1200+ employees",
        "source": "Press Release",
        "confidence": "verified"
      },
      {
        "id": "amd-bengaluru-engineering",
        "name": "Technostar R&D Campus",
        "city": "Bengaluru",
        "state": "Karnataka",
        "country": "India",
        "lat": 12.9716,
        "lng": 77.5946,
        "type": "engineering",
        "businessFocus": "Largest Global Design Center, Sovereign AI Support",
        "source": "Press Release",
        "confidence": "verified"
      },
      {
        "id": "amd-dublin-holding",
        "name": "Xilinx Finance Ireland Ltd.",
        "city": "Dublin",
        "country": "Ireland",
        "lat": 53.3498,
        "lng": -6.2603,
        "type": "regional",
        "businessFocus": "Financial, IP Holding Architecture",
        "source": "10-K FY2025, Exhibit 21",
        "confidence": "verified"
      }
    ]
  },
  {
    "company": "Amazon.com, Inc.",
    "website": "www.amazon.com/ir",
    "ticker": "AMZN",
    "sector": "Consumer Cyclical",
    "description": "Amazon.com, Inc. is a leading global online retailer and technology company that operates through a vast international network, with significant business segments in North America, various international markets including Germany, the United Kingdom, and Japan, and a global cloud computing infrastructure via Amazon Web Services (AWS).",
    "offices": [
      {
        "id": "AMZN-SEATTLE-HEADQUARTERS",
        "name": "Amazon Global Headquarters",
        "city": "Seattle",
        "state": "Washington",
        "country": "United States",
        "address": "410 Terry Avenue North, Seattle, Washington 98109-5210",
        "lat": 47.6205,
        "lng": -122.3367,
        "businessFocus": "Corporate Headquarters",
        "type": "headquarters",
        "sources": [
          "https://s2.q4cdn.com/299287126/files/doc_financials/2024/q3/76ba648c-eba4-4ec1-b571-4f5993feed2e.pdf"
        ],
        "confidence": "verified"
      },
      {
        "id": "AMZN-ARLINGTON-HEADQUARTERS",
        "name": "Amazon HQ2",
        "city": "Arlington",
        "state": "Virginia",
        "country": "United States",
        "address": "Arlington, Virginia",
        "lat": 38.858,
        "lng": -77.055,
        "businessFocus": "Corporate Headquarters",
        "type": "headquarters",
        "sources": [
          "https://www.aboutamazon.com/workplace/corporate-offices"
        ],
        "confidence": "verified"
      },
      {
        "id": "AMZN-LONDON-REGIONAL",
        "name": "Amazon UK Headquarters",
        "city": "London",
        "state": null,
        "country": "United Kingdom",
        "address": "1 Principal Place, Shoreditch, London",
        "lat": 51.521,
        "lng": -0.081,
        "businessFocus": "Regional Corporate Office",
        "type": "regional",
        "sources": [
          "https://www.aboutamazon.com/workplace/corporate-offices"
        ],
        "confidence": "verified"
      },
      {
        "id": "AMZN-HYDERABAD-ENGINEERING",
        "name": "Amazon Hyderabad Campus",
        "city": "Hyderabad",
        "state": "Telangana",
        "country": "India",
        "address": "Hyderabad, India",
        "lat": 17.385,
        "lng": 78.4867,
        "businessFocus": "Corporate and Engineering",
        "type": "engineering",
        "sources": [
          "https://www.aboutamazon.com/workplace/corporate-offices"
        ],
        "confidence": "verified"
      },
      {
        "id": "AMZN-CINCINNATI-LOGISTICS",
        "name": "Amazon Air Cargo Hub",
        "city": "Hebron",
        "state": "Kentucky",
        "country": "United States",
        "address": "Cincinnati/Northern Kentucky Airport",
        "lat": 39.0488,
        "lng": -84.6678,
        "businessFocus": "Air Cargo Logistics",
        "type": "logistics",
        "sources": [
          "https://logisticsviewpoints.com/2025/09/29/amazon-supply-chain-innovative-world/"
        ],
        "confidence": "verified"
      },
      {
        "id": "AMZN-NEWYORK-REGIONAL",
        "name": "JFK27 Office",
        "city": "New York City",
        "state": "New York",
        "country": "United States",
        "address": "Midtown Manhattan, New York City",
        "lat": 40.7549,
        "lng": -73.984,
        "businessFocus": "Corporate Office",
        "type": "regional",
        "sources": [
          "https://www.aboutamazon.com/workplace/corporate-offices"
        ],
        "confidence": "verified"
      }
    ]
  },
  {
    "company": "ASML Holding N.V.",
    "website": null,
    "ticker": "ASML",
    "sector": "Semiconductor Equipment",
    "description": "ASML is a Netherlands-based global leader in the semiconductor industry, specializing in the development and manufacturing of advanced photolithography systems. With a dominant 90% market share, the company maintains a vast international footprint, serving major semiconductor manufacturers across Europe, Asia, and North America to enable the production of increasingly complex microchips.",
    "offices": [
      {
        "id": "ASML-VELDHOVEN-HEADQUARTERS",
        "name": "ASML Veldhoven Headquarters",
        "city": "Veldhoven",
        "state": null,
        "country": "Netherlands",
        "address": "De Run 6501, 5504 DR Veldhoven",
        "lat": 51.412,
        "lng": 5.461,
        "businessFocus": "Headquarters, R&D, and Manufacturing",
        "type": "headquarters",
        "sources": [],
        "confidence": "city_center_approximation"
      },
      {
        "id": "ASML-BERLIN-MANUFACTURING",
        "name": "ASML Berlin Optics",
        "city": "Berlin",
        "state": null,
        "country": "Germany",
        "address": null,
        "lat": 52.52,
        "lng": 13.405,
        "businessFocus": "Optics manufacturing",
        "type": "manufacturing",
        "sources": [],
        "confidence": "city_center_approximation"
      },
      {
        "id": "ASML-SANDIEGO-ENGINEERING",
        "name": "ASML San Diego (Cymer)",
        "city": "San Diego",
        "state": "California",
        "country": "USA",
        "address": null,
        "lat": 32.715,
        "lng": -117.161,
        "businessFocus": "EUV light sources",
        "type": "engineering",
        "sources": [],
        "confidence": "city_center_approximation"
      },
      {
        "id": "ASML-PHOENIX-SATELLITE",
        "name": "ASML Phoenix Training Center",
        "city": "Phoenix",
        "state": "Arizona",
        "country": "USA",
        "address": null,
        "lat": 33.448,
        "lng": -112.074,
        "businessFocus": "Training center",
        "type": "satellite",
        "sources": [],
        "confidence": "city_center_approximation"
      }
    ]
  },
  {
    "company": "Broadcom Inc.",
    "website": "https://www.broadcom.com",
    "ticker": "AVGO",
    "sector": "Semiconductor and Infrastructure Software",
    "description": "A global technology leader designing, developing, and supplying semiconductor and infrastructure software solutions, operating a bifurcated geographic model that pairs Western R&D and administration with highly concentrated Indo-Pacific manufacturing and distribution networks.",
    "offices": [
      {
        "id": "avgo-palo-alto-hq",
        "name": "Broadcom Corporate Headquarters",
        "city": "Palo Alto",
        "state": "CA",
        "country": "United States",
        "address": "3421 Hillview Avenue",
        "lat": 37.3986,
        "lng": -122.1466,
        "type": "headquarters",
        "businessFocus": "Principal executive offices, software engineering, enterprise administration",
        "size": "561,000 sq ft",
        "established": "2023",
        "source": "10-K FY2025, Item 2",
        "confidence": "verified"
      },
      {
        "id": "avgo-fort-collins-eng",
        "name": "Fort Collins Engineering Node",
        "city": "Fort Collins",
        "state": "CO",
        "country": "United States",
        "address": "4380 Ziegler Road",
        "lat": 40.5401,
        "lng": -105.0268,
        "type": "engineering",
        "businessFocus": "Engineering, design, internal manufacturing oversight",
        "source": "10-K FY2025, Item 2",
        "confidence": "verified"
      },
      {
        "id": "avgo-batu-kawan-dist",
        "name": "Global Distribution Hub",
        "city": "Batu Kawan",
        "state": "Penang",
        "country": "Malaysia",
        "lat": 5.2647,
        "lng": 100.4429,
        "type": "logistics",
        "businessFocus": "Global supply chain management, final product engineering, physical distribution",
        "size": "Primary global node",
        "established": "2018",
        "source": "10-K FY2025, Item 2",
        "confidence": "verified"
      },
      {
        "id": "avgo-tel-aviv-rd",
        "name": "Israel R&D Center",
        "city": "Tel Aviv",
        "country": "Israel",
        "address": "17 George Weiss Street",
        "lat": 32.113,
        "lng": 34.8016,
        "type": "engineering",
        "businessFocus": "Advanced networking and security solutions development",
        "source": "10-K FY2025, Item 2",
        "confidence": "verified"
      },
      {
        "id": "avgo-singapore-sub",
        "name": "Singapore Operations Hub",
        "city": "Singapore",
        "country": "Singapore",
        "lat": 1.3521,
        "lng": 103.8198,
        "type": "regional",
        "businessFocus": "Tax optimization, supply chain billing, corporate subsidiary (Avago Technologies International Sales Pte. Limited)",
        "source": "Exhibit 21 FY2025",
        "confidence": "verified"
      },
      {
        "id": "avgo-bangalore-rd",
        "name": "Bangalore Engineering Hub",
        "city": "Bangalore",
        "state": "Karnataka",
        "country": "India",
        "address": "International Tech Park",
        "lat": 12.9866,
        "lng": 77.7374,
        "type": "engineering",
        "businessFocus": "Software engineering, back-end design support",
        "source": "10-K FY2025, Item 2",
        "confidence": "verified"
      }
    ]
  },
  {
    "company": "Alphabet Inc.",
    "website": null,
    "ticker": "GOOGL",
    "sector": "Technology",
    "description": "Alphabet Inc. is a US-based global conglomerate that operates as a parent company for major technology entities including Google and Waymo. With a massive workforce of nearly 200,000 employees and annual revenues exceeding $400 billion, the company maintains a pervasive global geographic footprint, delivering digital services, search infrastructure, and autonomous driving technologies to markets worldwide.",
    "offices": [
      {
        "id": "GOOGL-MOUNTAINVIEW-HEADQUARTERS",
        "name": "Googleplex",
        "city": "Mountain View",
        "state": "California",
        "country": "United States",
        "address": "1600 Amphitheatre Parkway, Mountain View, CA 94043",
        "lat": 37.422,
        "lng": -122.084,
        "businessFocus": "Corporate Headquarters",
        "type": "headquarters",
        "sources": [
          "https://s206.q4cdn.com/479360582/files/doc_financials/2025/q3/GOOG-10-Q-Q3-2025.pdf",
          "https://en.wikipedia.org/wiki/Alphabet_Inc."
        ],
        "confidence": "verified"
      },
      {
        "id": "GOOGL-NEWYORK-INFRASTRUCTURE",
        "name": "Google New York Infrastructure",
        "city": "New York",
        "state": "New York",
        "country": "United States",
        "address": "111 Eighth Avenue, New York, NY",
        "lat": 40.742,
        "lng": -74.003,
        "businessFocus": "Infrastructure and Engineering",
        "type": "engineering",
        "sources": [
          "https://en.wikipedia.org/wiki/Alphabet_Inc."
        ],
        "confidence": "verified"
      },
      {
        "id": "GOOGL-LONDON-INFRASTRUCTURE",
        "name": "Google King's Cross",
        "city": "London",
        "state": null,
        "country": "United Kingdom",
        "address": "King's Cross, London",
        "lat": 51.532,
        "lng": -0.124,
        "businessFocus": "Infrastructure and Engineering",
        "type": "engineering",
        "sources": [
          "https://en.wikipedia.org/wiki/Alphabet_Inc."
        ],
        "confidence": "verified"
      }
    ]
  },
  {
    "company": "Meta Platforms, Inc.",
    "website": "https://investor.atmeta.com",
    "ticker": "META",
    "sector": "Technology / Interactive Media",
    "description": "A global technology conglomerate rapidly transitioning from a highly decentralized, human-capital-intensive digital advertising platform to an industrial-scale, localized artificial intelligence utility.",
    "offices": [
      {
        "id": "meta-menlo-park-hq",
        "name": "Meta Global Headquarters",
        "city": "Menlo Park",
        "state": "California",
        "country": "USA",
        "address": "1 Meta Way",
        "lat": 37.485,
        "lng": -122.1483,
        "type": "headquarters",
        "businessFocus": "Principal executive headquarters, Meta Superintelligence Labs (MSL) operations",
        "size": "10M sq ft (2M sq ft slated for abandonment)",
        "source": "10-K FY2025, Item 2",
        "confidence": "verified"
      },
      {
        "id": "meta-holly-ridge-data-center",
        "name": "Richland Parish Data Center",
        "city": "Holly Ridge",
        "state": "Louisiana",
        "country": "USA",
        "lat": 32.4496,
        "lng": -91.7483,
        "type": "data_center",
        "businessFocus": "Hyperscale AI infrastructure, 2GW supercomputing cluster",
        "size": "4M sq ft (2,250 acres)",
        "source": "Corporate Press Release",
        "confidence": "verified"
      },
      {
        "id": "meta-dublin-regional",
        "name": "Meta Platforms Ireland Limited",
        "city": "Dublin",
        "country": "Ireland",
        "lat": 53.3331,
        "lng": -6.2489,
        "type": "regional",
        "businessFocus": "EMEA Regional Corporate Hub, User Data Management, Ad Revenue nexus",
        "source": "10-K FY2025, Exhibit 21.1",
        "confidence": "verified"
      },
      {
        "id": "meta-lulea-data-center",
        "name": "Luleå Data Center",
        "city": "Luleå",
        "country": "Sweden",
        "lat": 65.5848,
        "lng": 22.1567,
        "type": "data_center",
        "businessFocus": "European Hyperscale Data Center",
        "source": "Public Filings",
        "confidence": "verified"
      },
      {
        "id": "meta-singapore-data-center",
        "name": "Singapore Data Center",
        "city": "Singapore",
        "country": "Singapore",
        "lat": 1.3142,
        "lng": 103.7027,
        "type": "data_center",
        "businessFocus": "APAC Hyperscale Data Center",
        "source": "Public Filings",
        "confidence": "verified"
      },
      {
        "id": "meta-sao-paulo-regional",
        "name": "Facebook Serviços Online Do Brasil Ltda.",
        "city": "São Paulo",
        "country": "Brazil",
        "lat": -23.5505,
        "lng": -46.6333,
        "type": "regional",
        "businessFocus": "LATAM regional operations",
        "source": "10-K FY2025, Exhibit 21.1",
        "confidence": "city_center_approximation"
      }
    ]
  },
  {
    "company": "Microsoft Corporation",
    "website": "https://www.microsoft.com",
    "ticker": "MSFT",
    "sector": "Technology",
    "description": "Microsoft is a global technology leader headquartered in Redmond, Washington, operating a massive international infrastructure that includes extensive data center networks, such as the Fairwater facility in Wisconsin, and a workforce of approximately 228,000 employees deployed across the globe to support its cloud, software, and AI-focused platforms.",
    "offices": [
      {
        "id": "MSFT-REDMOND-HEADQUARTERS",
        "name": "Microsoft Corporate Headquarters",
        "city": "Redmond",
        "state": "Washington",
        "country": "United States",
        "address": "One Microsoft Way, Redmond, WA 98052-6399",
        "lat": 47.6423,
        "lng": -122.1273,
        "businessFocus": "Corporate Headquarters and R&D",
        "type": "headquarters",
        "sources": [
          "Microsoft Corporate Filings"
        ],
        "confidence": "verified"
      },
      {
        "id": "MSFT-MOUNT-PLEASANT-DATA_CENTER",
        "name": "Fairwater AI Datacenter Campus",
        "city": "Mount Pleasant",
        "state": "Wisconsin",
        "country": "United States",
        "address": "Mount Pleasant, WI",
        "lat": 42.725,
        "lng": -87.915,
        "businessFocus": "AI Infrastructure and Datacenter",
        "type": "data_center",
        "sources": [
          "Microsoft Corporate Filings"
        ],
        "confidence": "verified"
      },
      {
        "id": "MSFT-SINGAPORE-REGIONAL",
        "name": "Microsoft Singapore Operations Center",
        "city": "Singapore",
        "state": null,
        "country": "Singapore",
        "address": "80 Raffles Place, Singapore",
        "lat": 1.2833,
        "lng": 103.8519,
        "businessFocus": "Regional Operations and Sales",
        "type": "regional",
        "sources": [
          "Microsoft Corporate Filings"
        ],
        "confidence": "verified"
      },
      {
        "id": "MSFT-NEW-YORK-SATELLITE",
        "name": "Microsoft Experience Center New York",
        "city": "New York",
        "state": "New York",
        "country": "United States",
        "address": "677 Fifth Avenue, New York, NY",
        "lat": 40.7607,
        "lng": -73.9765,
        "businessFocus": "Retail and Experience Center",
        "type": "satellite",
        "sources": [
          "Microsoft Corporate Filings"
        ],
        "confidence": "verified"
      },
      {
        "id": "MSFT-DUBLIN-REGIONAL",
        "name": "Microsoft Ireland Operations Center",
        "city": "Dublin",
        "state": null,
        "country": "Ireland",
        "address": "Dublin, Ireland",
        "lat": 53.3498,
        "lng": -6.2603,
        "businessFocus": "Regional Operations",
        "type": "regional",
        "sources": [
          "Microsoft Corporate Filings"
        ],
        "confidence": "verified"
      }
    ]
  },
  {
    "company": "Micron Technology, Inc.",
    "website": "https://www.micron.com",
    "ticker": "MU",
    "sector": "Semiconductors",
    "description": "Micron is a global leader in memory and storage solutions, operating a highly bifurcated geographic model with R&D and advanced front-end fabrication in the US, high-volume manufacturing in Taiwan and Japan, and back-end assembly across South and Southeast Asia.",
    "offices": [
      {
        "id": "mu-boise-hq",
        "name": "Global Headquarters & Fab 4",
        "city": "Boise",
        "state": "Idaho",
        "country": "USA",
        "lat": 43.615,
        "lng": -116.2023,
        "type": "headquarters",
        "businessFocus": "Corporate HQ, R&D, Front-End Manufacturing, 1-gamma (1γ) DRAM development",
        "source": "Q2 2026 Earnings Call Transcript",
        "confidence": "verified"
      },
      {
        "id": "mu-manassas-fab6",
        "name": "Fab 6",
        "city": "Manassas",
        "state": "Virginia",
        "country": "USA",
        "lat": 38.7509,
        "lng": -77.4753,
        "type": "manufacturing",
        "businessFocus": "Front-End Manufacturing, automotive, embedded, and industrial sector legacy nodes",
        "source": "Corporate Profile",
        "confidence": "verified"
      },
      {
        "id": "mu-clay-megafab",
        "name": "Clay Megafab",
        "city": "Clay",
        "state": "New York",
        "country": "USA",
        "lat": 43.1601,
        "lng": -76.2022,
        "type": "manufacturing",
        "businessFocus": "Front-End Manufacturing, AI advanced memory (Under Construction)",
        "established": "2026",
        "source": "Press Release (Jan 16, 2026)",
        "confidence": "verified"
      },
      {
        "id": "mu-taichung-fab",
        "name": "Micron Taiwan (Taichung)",
        "city": "Taichung",
        "country": "Taiwan",
        "lat": 24.1477,
        "lng": 120.6736,
        "type": "manufacturing",
        "businessFocus": "Front-End Manufacturing, Advanced Packaging for HBM",
        "source": "Corporate Profile",
        "confidence": "verified"
      },
      {
        "id": "mu-taoyuan-fab",
        "name": "Micron Taiwan (Taoyuan)",
        "city": "Taoyuan",
        "country": "Taiwan",
        "lat": 24.9936,
        "lng": 121.301,
        "type": "manufacturing",
        "businessFocus": "Front-End Manufacturing",
        "source": "Corporate Profile",
        "confidence": "verified"
      },
      {
        "id": "mu-tainan-fab",
        "name": "Micron Taiwan (Tainan)",
        "city": "Tainan",
        "country": "Taiwan",
        "lat": 23.1417,
        "lng": 120.2513,
        "type": "manufacturing",
        "businessFocus": "Front-End Manufacturing",
        "source": "Corporate Profile",
        "confidence": "verified"
      },
      {
        "id": "mu-tongluo-fab",
        "name": "Tongluo Facility",
        "city": "Miaoli County",
        "country": "Taiwan",
        "lat": 24.4851,
        "lng": 120.7852,
        "type": "manufacturing",
        "businessFocus": "Front-End Manufacturing",
        "established": "2026",
        "source": "Q2 2026 Earnings Call Transcript",
        "confidence": "verified"
      },
      {
        "id": "mu-singapore-fab",
        "name": "Fab 7 & Fab 10",
        "city": "Singapore",
        "country": "Singapore",
        "lat": 1.3521,
        "lng": 103.8198,
        "type": "manufacturing",
        "businessFocus": "NAND Manufacturing, Advanced Packaging",
        "source": "Corporate Profile",
        "confidence": "verified"
      },
      {
        "id": "mu-hiroshima-fab",
        "name": "Hiroshima Fab",
        "city": "Hiroshima",
        "country": "Japan",
        "lat": 34.3853,
        "lng": 132.4553,
        "type": "manufacturing",
        "businessFocus": "DRAM Manufacturing (EUV)",
        "source": "Corporate Profile",
        "confidence": "verified"
      },
      {
        "id": "mu-penang-fab",
        "name": "Penang Facility",
        "city": "Penang",
        "country": "Malaysia",
        "lat": 5.4141,
        "lng": 100.3288,
        "type": "manufacturing",
        "businessFocus": "Back-End Assembly & Test",
        "source": "Corporate Profile",
        "confidence": "verified"
      },
      {
        "id": "mu-muar-fab",
        "name": "Muar Facility",
        "city": "Muar",
        "country": "Malaysia",
        "lat": 2.0442,
        "lng": 102.5689,
        "type": "manufacturing",
        "businessFocus": "Back-End Assembly & Test",
        "source": "Corporate Profile",
        "confidence": "verified"
      },
      {
        "id": "mu-xian-fab",
        "name": "Xi'an Facility",
        "city": "Xi'an",
        "country": "China",
        "lat": 34.3416,
        "lng": 108.9398,
        "type": "manufacturing",
        "businessFocus": "Back-End Assembly & Test",
        "source": "Corporate Profile",
        "confidence": "verified"
      },
      {
        "id": "mu-gujarat-fab",
        "name": "Gujarat Facility",
        "city": "Gujarat",
        "country": "India",
        "lat": 23.0225,
        "lng": 72.5714,
        "type": "manufacturing",
        "businessFocus": "Back-End Assembly & Test",
        "established": "2026",
        "source": "Corporate Profile",
        "confidence": "verified"
      },
      {
        "id": "mu-austin-rd",
        "name": "Austin R&D Center",
        "city": "Austin",
        "state": "Texas",
        "country": "USA",
        "lat": 30.2672,
        "lng": -97.7431,
        "type": "engineering",
        "businessFocus": "R&D, Design Center",
        "source": "Micron Locations",
        "confidence": "verified"
      },
      {
        "id": "mu-munich-sales",
        "name": "Munich Office",
        "city": "Munich",
        "country": "Germany",
        "lat": 48.1351,
        "lng": 11.582,
        "type": "sales",
        "businessFocus": "Regional Sales",
        "source": "Unverified function",
        "confidence": "unverified"
      },
      {
        "id": "mu-italy-sub",
        "name": "Micron Technology Italia S.r.l.",
        "city": "Rome",
        "country": "Italy",
        "lat": 41.9028,
        "lng": 12.4964,
        "type": "regional",
        "businessFocus": "Regional Subsidiary",
        "source": "SEC Filings",
        "confidence": "unverified"
      }
    ]
  },
  {
    "company": "NVIDIA Corporation",
    "website": "https://www.nvidia.com",
    "ticker": "NVDA",
    "sector": "Technology / Semiconductors",
    "description": "A sovereign-level infrastructure architect orchestrating the physical and digital substrates of the global AI economy through advanced GPUs, high-performance networking, and full-stack AI computing platforms.",
    "offices": [
      {
        "id": "nvda-santa-clara-hq",
        "name": "NVIDIA Global Headquarters",
        "city": "Santa Clara",
        "state": "California",
        "country": "USA",
        "address": null,
        "lat": 37.3541,
        "lng": -121.9552,
        "type": "headquarters",
        "businessFocus": "Global HQ, Corporate R&D, Core Data Center, Executive Leadership",
        "size": "3,000,000 sq ft",
        "established": "1993",
        "source": "10-K FY2026, Item 2",
        "confidence": "verified"
      },
      {
        "id": "nvda-austin-regional",
        "name": "NVIDIA Austin",
        "city": "Austin",
        "state": "Texas",
        "country": "USA",
        "lat": 30.2672,
        "lng": -97.7431,
        "type": "regional",
        "businessFocus": "CPU/System Architecture R&D",
        "source": "NVIDIA Americas Locations",
        "confidence": "verified"
      },
      {
        "id": "nvda-yokneam-regional",
        "name": "NVIDIA Yokneam",
        "city": "Yokneam",
        "country": "Israel",
        "lat": 32.6598,
        "lng": 35.1054,
        "type": "regional",
        "businessFocus": "High-Performance Networking R&D, InfiniBand",
        "source": "Corporate Disclosures, Israel Operations",
        "confidence": "verified"
      },
      {
        "id": "nvda-beersheba-rd",
        "name": "NVIDIA Be'er Sheva (Gav-Yam)",
        "city": "Be'er Sheva",
        "country": "Israel",
        "lat": 31.2518,
        "lng": 34.7913,
        "type": "engineering",
        "businessFocus": "Advanced Networking R&D",
        "size": "3,000 sq meters",
        "established": "2026",
        "source": "Corporate Press Releases",
        "confidence": "verified"
      },
      {
        "id": "nvda-kiryat-tivon-campus",
        "name": "Kiryat Tivon Mega-Campus",
        "city": "Kiryat Tivon",
        "country": "Israel",
        "lat": 32.7151,
        "lng": 35.1325,
        "type": "regional",
        "businessFocus": "Massive R&D Campus",
        "size": "160,000 sq meters / 10,000 headcount",
        "established": "2031",
        "source": "Corporate Press Releases",
        "confidence": "verified"
      },
      {
        "id": "nvda-bengaluru-engineering",
        "name": "NVIDIA Bengaluru",
        "city": "Bengaluru",
        "state": "Karnataka",
        "country": "India",
        "lat": 12.9716,
        "lng": 77.5946,
        "type": "engineering",
        "businessFocus": "Software & CUDA Engineering R&D",
        "source": "NVIDIA Locations & Regional Offices",
        "confidence": "verified"
      },
      {
        "id": "nvda-hsinchu-regional",
        "name": "NVIDIA Hsinchu",
        "city": "Hsinchu City",
        "country": "Taiwan",
        "lat": 24.8138,
        "lng": 120.9675,
        "type": "regional",
        "businessFocus": "R&D Hub, Foundational Supply Chain Coordination",
        "source": "NVIDIA Asia & Japan Locations",
        "confidence": "verified"
      },
      {
        "id": "nvda-singapore-regional",
        "name": "NVIDIA Singapore Pte Ltd",
        "city": "Singapore",
        "country": "Singapore",
        "lat": 1.3521,
        "lng": 103.8198,
        "type": "regional",
        "businessFocus": "Invoicing, Billing Hub, Logistics Coordination",
        "source": "10-K FY2026, Exhibit 21",
        "confidence": "verified"
      },
      {
        "id": "nvda-london-engineering",
        "name": "NVIDIA UK R&D Hub",
        "city": "London",
        "country": "UK",
        "lat": 51.5074,
        "lng": -0.1278,
        "type": "engineering",
        "businessFocus": "R&D Hub, Sovereign AI & Quantum Supercomputing",
        "source": "NVIDIA Locations & Regional Offices",
        "confidence": "verified"
      }
    ]
  },
  {
    "company": "Taiwan Semiconductor Manufacturing Company Limited",
    "website": "https://www.tsmc.com",
    "ticker": "TSM",
    "sector": "Semiconductors",
    "description": "TSMC is the world's preeminent dedicated semiconductor contract manufacturer, currently transitioning from a highly concentrated Taiwanese footprint to a decentralized global manufacturing architecture.",
    "offices": [
      {
        "id": "tsm-hsinchu-hq",
        "name": "Global Headquarters & GIGAFAB",
        "city": "Hsinchu",
        "country": "Taiwan",
        "lat": 24.8138,
        "lng": 120.9675,
        "type": "headquarters",
        "businessFocus": "Corporate HQ, Executive Leadership, R&D Vanguard, Advanced Manufacturing (2nm/A14)",
        "source": "Form 6-K Subsidiary Data / Q4 2025 Earnings Transcript",
        "confidence": "verified"
      },
      {
        "id": "tsm-taichung-manufacturing",
        "name": "Taichung GIGAFAB Cluster",
        "city": "Taichung",
        "country": "Taiwan",
        "lat": 24.1477,
        "lng": 120.6736,
        "type": "manufacturing",
        "businessFocus": "Advanced Manufacturing",
        "source": "Q4 2025 Earnings Transcript",
        "confidence": "verified"
      },
      {
        "id": "tsm-tainan-manufacturing",
        "name": "Tainan GIGAFAB Cluster",
        "city": "Tainan",
        "country": "Taiwan",
        "lat": 23.1113,
        "lng": 120.2858,
        "type": "manufacturing",
        "businessFocus": "Advanced Manufacturing",
        "source": "Q4 2025 Earnings Transcript",
        "confidence": "verified"
      },
      {
        "id": "tsm-phoenix-manufacturing",
        "name": "TSMC Arizona (Fabs 1, 2, 3)",
        "city": "Phoenix",
        "state": "Arizona",
        "country": "USA",
        "lat": 33.4484,
        "lng": -112.074,
        "type": "manufacturing",
        "businessFocus": "Advanced Manufacturing (4nm, 3nm, 2nm/A16), Onshore Integration",
        "investment": "$165B",
        "source": "Q4 2025 Earnings Transcript / TSMC Press Release",
        "confidence": "verified"
      },
      {
        "id": "tsm-camas-manufacturing",
        "name": "TSMC Washington",
        "city": "Camas",
        "state": "Washington",
        "country": "USA",
        "lat": 45.5826,
        "lng": -122.4015,
        "type": "manufacturing",
        "businessFocus": "Legacy 8-inch Wafer Manufacturing",
        "source": "TSMC 2024 Annual Report",
        "confidence": "verified"
      },
      {
        "id": "tsm-sanjose-regional",
        "name": "TSMC North America",
        "city": "San Jose",
        "state": "California",
        "country": "USA",
        "lat": 37.3382,
        "lng": -121.8863,
        "type": "regional",
        "businessFocus": "Regional Sales, Customer Support, Financial Operations",
        "source": "TSMC Affiliates and Forward Contracts",
        "confidence": "unverified"
      },
      {
        "id": "tsm-kumamoto-manufacturing",
        "name": "Japan Advanced Semiconductor Manufacturing (JASM)",
        "city": "Kumamoto",
        "country": "Japan",
        "lat": 32.8031,
        "lng": 130.7079,
        "type": "manufacturing",
        "businessFocus": "Manufacturing (22/28nm, 12/16nm, transitioning to 3nm logic chips)",
        "source": "Q4 2025 Earnings Transcript",
        "confidence": "verified"
      },
      {
        "id": "tsm-dresden-manufacturing",
        "name": "European Semiconductor Manufacturing Company (ESMC)",
        "city": "Dresden",
        "country": "Germany",
        "lat": 51.0504,
        "lng": 13.7373,
        "type": "manufacturing",
        "businessFocus": "Manufacturing (28/22nm, 16/12nm FinFET) for Automotive/Industrial",
        "established": "2024",
        "source": "TrendForce / GTAI Press Release",
        "confidence": "verified"
      },
      {
        "id": "tsm-munich-engineering",
        "name": "Munich Design Center",
        "city": "Munich",
        "country": "Germany",
        "lat": 48.1351,
        "lng": 11.582,
        "type": "engineering",
        "businessFocus": "Chip Design / R&D for Automotive and Industrial IoT",
        "established": "2025",
        "source": "TrendForce / GTAI Press Release",
        "confidence": "verified"
      },
      {
        "id": "tsm-nanjing-manufacturing",
        "name": "TSMC Nanjing",
        "city": "Nanjing",
        "country": "China",
        "lat": 32.0603,
        "lng": 118.7969,
        "type": "manufacturing",
        "businessFocus": "Legacy Manufacturing (16/28nm)",
        "source": "TSMC 2024 Annual Report",
        "confidence": "verified"
      },
      {
        "id": "tsm-shanghai-manufacturing",
        "name": "TSMC China Co. Ltd.",
        "city": "Shanghai",
        "country": "China",
        "lat": 31.2304,
        "lng": 121.4737,
        "type": "manufacturing",
        "businessFocus": "Legacy 8-inch Wafer Manufacturing",
        "source": "TSMC 2024 Annual Report",
        "confidence": "unverified"
      }
    ]
  }
]